[
  {
    "name": "Saylla huasao",
    "code": "RTI-01",
    "route": [
      {
        "name": "Luis Vallejo Santoni",
        "location": {
          "lat": -13.544466,
          "lng": -71.986992
        }
      },
      {
        "name": "Losa 1",
        "location": {
          "lat": -13.5435505763437,
          "lng": -71.98561188775224
        }
      },
      {
        "name": "Estrella",
        "location": {
          "lat": -13.542744987648884,
          "lng": -71.98445787311506
        }
      },
      {
        "name": "Apurímac",
        "location": {
          "lat": -13.541839,
          "lng": -71.983519
        }
      },
      {
        "name": "Domingo Guevara",
        "location": {
          "lat": -13.540637,
          "lng": -71.982743
        }
      },
      {
        "name": "Gradas",
        "location": {
          "lat": -13.539404,
          "lng": -71.984237
        }
      },
      {
        "name": "Teléfono",
        "location": {
          "lat": -13.538033,
          "lng": -71.983123
        }
      },
      {
        "name": "Ramiro Prialé",
        "location": {
          "lat": -13.534326,
          "lng": -71.981915
        }
      },
      {
        "name": "Parque",
        "location": {
          "lat": -13.533369173504774,
          "lng": -71.9826266661064
        }
      },
      {
        "name": "Miguel Grau",
        "location": {
          "lat": -13.532696,
          "lng": -71.980444
        }
      },
      {
        "name": "Zarzuela",
        "location": {
          "lat": -13.529854677780266,
          "lng": -71.9794700751635
        }
      },
      {
        "name": "Ccoripata",
        "location": {
          "lat": -13.527107826929596,
          "lng": -71.97870396234217
        }
      },
      {
        "name": "Belempampa",
        "location": {
          "lat": -13.525773861455884,
          "lng": -71.97826275110336
        }
      },
      {
        "name": "21 de Mayo",
        "location": {
          "lat": -13.524996341221122,
          "lng": -71.97999073223895
        }
      },
      {
        "name": "Puente Belén",
        "location": {
          "lat": -13.523635,
          "lng": -71.979962
        }
      },
      {
        "name": "Puente Grau",
        "location": {
          "lat": -13.524269,
          "lng": -71.97817
        }
      },
      {
        "name": "Colegio Rosario",
        "location": {
          "lat": -13.52293,
          "lng": -71.977355
        }
      },
      {
        "name": "Humberto Luna",
        "location": {
          "lat": -13.524234,
          "lng": -71.975764
        }
      },
      {
        "name": "Correo",
        "location": {
          "lat": -13.523201518186882,
          "lng": -71.97446036746861
        }
      },
      {
        "name": "La Salle",
        "location": {
          "lat": -13.522419520626036,
          "lng": -71.97323835958935
        }
      },
      {
        "name": "Mercado Wanchaq",
        "location": {
          "lat": -13.522428198917847,
          "lng": -71.97233149918758
        }
      },
      {
        "name": "Manco Inca",
        "location": {
          "lat": -13.52261238771284,
          "lng": -71.97102501605578
        }
      },
      {
        "name": "Clorinda Matto",
        "location": {
          "lat": -13.520645728441572,
          "lng": -71.96878445490523
        }
      },
      {
        "type": "REFERENCE",
        "value": "culturaRoutes"
      },
      {
        "name": "Camionero",
        "location": {
          "lat": -13.53302870660512,
          "lng": -71.92269590581027
        }
      },
      {
        "name": "Santa Rosa",
        "location": {
          "lat": -13.532857178742448,
          "lng": -71.92090292990267
        }
      },
      {
        "name": "Mercadillo",
        "location": {
          "lat": -13.532514677489024,
          "lng": -71.9193561097896
        }
      },
      {
        "name": "San Miguel",
        "location": {
          "lat": -13.531765746120982,
          "lng": -71.91619485062255
        }
      },
      {
        "name": "Sol de Oro",
        "location": {
          "lat": -13.5319909959673,
          "lng": -71.91430716139831
        }
      },
      {
        "name": "Enaco",
        "location": {
          "lat": -13.533597036001527,
          "lng": -71.91189349444828
        }
      },
      {
        "name": "Cachimayo",
        "location": {
          "lat": -13.535385233636358,
          "lng": -71.90926541568524
        }
      },
      {
        "name": "Puente",
        "location": {
          "lat": -13.53635067456182,
          "lng": -71.90770696115035
        }
      },
      {
        "name": "Grifo",
        "location": {
          "lat": -13.536960382610417,
          "lng": -71.90680389749781
        }
      },
      {
        "name": "Universidad Andina",
        "location": {
          "lat": -13.5386855027454,
          "lng": -71.90415142310371
        }
      },
      {
        "name": "Teléfono",
        "location": {
          "lat": -13.539535889574514,
          "lng": -71.90297443193317
        }
      },
      {
        "name": "Tingo",
        "location": {
          "lat": -13.540785265181189,
          "lng": -71.90125454267654
        }
      },
      {
        "name": "Aprovite",
        "location": {
          "lat": -13.541820755214406,
          "lng": -71.8997920052805
        }
      },
      {
        "name": "San Martín",
        "location": {
          "lat": -13.542954619876825,
          "lng": -71.89817198804033
        }
      },
      {
        "name": "Miraflores",
        "location": {
          "lat": -13.54461627363419,
          "lng": -71.89580443596408
        }
      },
      {
        "name": "Penal",
        "location": {
          "lat": -13.545133850139878,
          "lng": -71.89473223926336
        }
      },
      {
        "name": "San Juan",
        "location": {
          "lat": -13.54589620690304,
          "lng": -71.89211010406221
        }
      },
      {
        "name": "Control-corporation roca",
        "location": {
          "lat": -13.546458319463957,
          "lng": -71.88966081845638
        }
      },
      {
        "name": "Farmacia",
        "location": {
          "lat": -13.547155675651899,
          "lng": -71.88660276071795
        }
      },
      {
        "name": "Paradero Medio",
        "location": {
          "lat": -13.547585495425889,
          "lng": -71.88506649302744
        }
      },
      {
        "name": "Tercer Paradero",
        "location": {
          "lat": -13.548247770254532,
          "lng": -71.8826804687899
        }
      },
      {
        "name": "Romeritos",
        "location": {
          "lat": -13.548673897120981,
          "lng": -71.88098718387026
        }
      },
      {
        "name": "Posta",
        "location": {
          "lat": -13.54891542279444,
          "lng": -71.88006365817147
        }
      },
      {
        "name": "Tapia",
        "location": {
          "lat": -13.549606087243411,
          "lng": -71.87764209936809
        }
      },
      {
        "name": "Forestal",
        "location": {
          "lat": -13.550072337773916,
          "lng": -71.87605823526194
        }
      },
      {
        "name": "Kayra",
        "location": {
          "lat": -13.550656830178644,
          "lng": -71.87404348243453
        }
      },
      {
        "name": "Puente Huacoto",
        "location": {
          "lat": -13.551596450945556,
          "lng": -71.8704017701724
        }
      },
      {
        "name": "Collana",
        "location": {
          "lat": -13.552375895071172,
          "lng": -71.86725888450583
        }
      },
      {
        "name": "U Andina",
        "location": {
          "lat": -13.552876952211236,
          "lng": -71.86518039149347
        }
      },
      {
        "name": "Kinta",
        "location": {
          "lat": -13.553102071822366,
          "lng": -71.86390522302383
        }
      },
      {
        "name": "Entrada",
        "location": {
          "lat": -13.55345026468987,
          "lng": -71.86151412400505
        }
      },
      {
        "name": "Peaje",
        "location": {
          "lat": -13.555573252042572,
          "lng": -71.85623548464778
        }
      },
      {
        "name": "Llamagas",
        "location": {
          "lat": -13.558653516505617,
          "lng": -71.85134634349772
        }
      },
      {
        "name": "Angostura",
        "location": {
          "lat": -13.560948634123559,
          "lng": -71.8461374634611
        }
      },
      {
        "name": "Saywas",
        "location": {
          "lat": -13.563303942021593,
          "lng": -71.84099314100294
        }
      },
      {
        "name": "Bosque",
        "location": {
          "lat": -13.56565658453261,
          "lng": -71.83592800427805
        }
      },
      {
        "name": "Cristal",
        "location": {
          "lat": -13.56693779228231,
          "lng": -71.83310973906204
        }
      },
      {
        "name": "Cruce",
        "location": {
          "lat": -13.567661718831275,
          "lng": -71.8315446137458
        }
      },
      {
        "name": "Primero",
        "location": {
          "lat": -13.569699533378394,
          "lng": -71.8288705089004
        }
      },
      {
        "name": "Segundo",
        "location": {
          "lat": -13.571038481673751,
          "lng": -71.82736968618754
        }
      },
      {
        "name": "Tercero",
        "location": {
          "lat": -13.57194446121075,
          "lng": -71.82636163493953
        }
      },
      {
        "name": "Estadio",
        "location": {
          "lat": -13.572409268201104,
          "lng": -71.82577912934576
        }
      },
      {
        "name": "Chingo",
        "location": {
          "lat": -13.575239290793519,
          "lng": -71.82004887667595
        }
      },
      {
        "name": "Rico Pollo",
        "location": {
          "lat": -13.577380997083976,
          "lng": -71.81684358374957
        }
      },
      {
        "name": "Tienda",
        "location": {
          "lat": -13.576185632570436,
          "lng": -71.81562324489256
        }
      },
      {
        "name": "Huasao",
        "location": {
          "lat": -13.573899300989002,
          "lng": -71.81456335963308
        }
      },
      {
        "name": "Salón",
        "location": {
          "lat": -13.57093338878016,
          "lng": -71.81320831912628
        }
      },
      {
        "name": "Plaza",
        "location": {
          "lat": -13.570086549810258,
          "lng": -71.8126966183517
        }
      },
      {
        "name": "Colegio",
        "location": {
          "lat": -13.570632259844789,
          "lng": -71.81026697610342
        }
      },
      {
        "name": "Mariscal Gamarra",
        "location": {
          "lat": -13.571088874381298,
          "lng": -71.80807729827782
        }
      }
    ]
  },
  {
    "name": "Rápidos",
    "code": "RTU-15",
    "route": [
      {
        "name": "Avenue Ayahuayco,28",
        "location": {
          "lat": -13.515028488388237,
          "lng": -71.98779087128483
        }
      },
      {
        "name": "Arcopata",
        "location": {
          "lat": -13.516157578914196,
          "lng": -71.98763602761557
        }
      },
      {
        "name": "Avenida Apurimac,595",
        "location": {
          "lat": -13.516260517063014,
          "lng": -71.98693671398539
        }
      },
      {
        "name": "Esquina Arcopata",
        "location": {
          "lat": -13.515859333030015,
          "lng": -71.98380075531524
        }
      },
      {
        "name": "Arones",
        "location": {
          "lat": -13.51740969980007,
          "lng": -71.98254613528833
        }
      },
      {
        "name": "Plaza San Francisco",
        "location": {
          "lat": -13.518787882429022,
          "lng": -71.9815715516448
        }
      },
      {
        "name": "Mesón de la Estrella",
        "location": {
          "lat": -13.520287966035264,
          "lng": -71.9799410512226
        }
      },
      {
        "name": "Matara",
        "location": {
          "lat": -13.521004051386107,
          "lng": -71.97928396204631
        }
      },
      {
        "name": "Ayacucho",
        "location": {
          "lat": -13.52050866888769,
          "lng": -71.97850476126645
        }
      },
      {
        "name": "Av Sol - EL Sol",
        "location": {
          "lat": -13.51948365181845,
          "lng": -71.97761927589094
        }
      },
      {
        "name": "Pampa De Castillo, 408",
        "location": {
          "lat": -13.519816620671133,
          "lng": -71.97628435637807
        }
      },
      {
        "name": "Limacpampa",
        "location": {
          "lat": -13.51985299601859,
          "lng": -71.97340776265365
        }
      },
      {
        "name": "Huascar",
        "location": {
          "lat": -13.520187295257758,
          "lng": -71.9714780010104
        }
      },
      {
        "name": "Tacna - Clorinda Matto",
        "location": {
          "lat": -13.52062921878832,
          "lng": -71.9687721829894
        }
      },
      {
        "name": "Garcilaso",
        "location": {
          "lat": -13.521317532907313,
          "lng": -71.96651320899271
        }
      },
      {
        "name": "Amauta",
        "location": {
          "lat": -13.522359303212086,
          "lng": -71.9631560083819
        }
      },
      {
        "name": "Univercidad San Antonio de Abad",
        "location": {
          "lat": -13.52347720169373,
          "lng": -71.95948577846217
        }
      },
      {
        "name": "Hospital Regional",
        "location": {
          "lat": -13.524473967615657,
          "lng": -71.95626285928323
        }
      },
      {
        "name": "Manuel Prado",
        "location": {
          "lat": -13.525736587902498,
          "lng": -71.95196221699389
        }
      },
      {
        "name": "Magisterio",
        "location": {
          "lat": -13.526705866234407,
          "lng": -71.94887952422619
        }
      },
      {
        "name": "Marcavalle",
        "location": {
          "lat": -13.527464308545843,
          "lng": -71.94615587236648
        }
      },
      {
        "name": "Santa Ursula",
        "location": {
          "lat": -13.527795690068562,
          "lng": -71.94333863965413
        }
      },
      {
        "name": "Primer paradero de San Sebastia",
        "location": {
          "lat": -13.528193249388455,
          "lng": -71.94018526301657
        }
      },
      {
        "name": "callejon",
        "location": {
          "lat": -13.528728880776407,
          "lng": -71.93834060938691
        }
      },
      {
        "name": "Segundo paradero de San Sebastian",
        "location": {
          "lat": -13.529330563309049,
          "lng": -71.9362245362867
        }
      },
      {
        "name": "Tercero paradero de San Sebastian",
        "location": {
          "lat": -13.529658446725437,
          "lng": -71.93496250356029
        }
      },
      {
        "name": "Cuarto paradero de San Sebastian",
        "location": {
          "lat": -13.530284676783914,
          "lng": -71.93280987118418
        }
      },
      {
        "name": "Cuarto paradero de San Sebastian",
        "location": {
          "lat": -13.531073107156718,
          "lng": -71.93009082154326
        }
      },
      {
        "name": "quinto paradero de San Sebastian",
        "location": {
          "lat": -13.53150618723304,
          "lng": -71.92835825349091
        }
      },
      {
        "name": "Sexto paradero de San Sebastian",
        "location": {
          "lat": -13.53229298699121,
          "lng": -71.92571276515717
        }
      },
      {
        "name": "Setimo paradero de San Sebastian",
        "location": {
          "lat": -13.53302870660512,
          "lng": -71.92269590581027
        }
      },
      {
        "name": "Camionero",
        "location": {
          "lat": -13.532857178742448,
          "lng": -71.92090292990267
        }
      },
      {
        "name": "Santa Rosa",
        "location": {
          "lat": -13.532514677489024,
          "lng": -71.9193561097896
        }
      },
      {
        "name": "Mercadillo",
        "location": {
          "lat": -13.531765746120982,
          "lng": -71.91619485062255
        }
      },
      {
        "name": "San migel",
        "location": {
          "lat": -13.5319909959673,
          "lng": -71.91430716139831
        }
      },
      {
        "name": "Sol de Oro",
        "location": {
          "lat": -13.533597036001527,
          "lng": -71.91189349444828
        }
      },
      {
        "name": "Enaco",
        "location": {
          "lat": -13.535385233636358,
          "lng": -71.90926541568524
        }
      },
      {
        "name": "Cachimayo",
        "location": {
          "lat": -13.53635067456182,
          "lng": -71.90770696115035
        }
      },
      {
        "name": "puente",
        "location": {
          "lat": -13.536960382610417,
          "lng": -71.90680389749781
        }
      },
      {
        "name": "Grifo",
        "location": {
          "lat": -13.5386855027454,
          "lng": -71.90415142310371
        }
      },
      {
        "name": "Univercidad Andina",
        "location": {
          "lat": -13.538267776002398,
          "lng": -71.90368091973673
        }
      },
      {
        "name": "Entrada",
        "location": {
          "lat": -13.53707968371883,
          "lng": -71.9031724216996
        }
      },
      {
        "name": "Esquina(2 Álamos)",
        "location": {
          "lat": -13.53550174841079,
          "lng": -71.90247347564437
        }
      },
      {
        "name": "Circunvalacion Norte, 260(parque)",
        "location": {
          "lat": -13.535884699044168,
          "lng": -71.90146690204335
        }
      },
      {
        "name": "Circunvalacion Norte, 260",
        "location": {
          "lat": -13.538398914998968,
          "lng": -71.89824986671877
        }
      },
      {
        "name": "Ciro Alegria",
        "location": {
          "lat": -13.540696189650678,
          "lng": -71.89379934089561
        }
      },
      {
        "name": "Lima, 15",
        "location": {
          "lat": -13.54209828684231,
          "lng": -71.89020181169562
        }
      },
      {
        "name": "Circunvalacion Norte, 869",
        "location": {
          "lat": -13.54073397512021,
          "lng": -71.88802520747781
        }
      }
    ]
  },
  {
    "name": "Saylla Tipon Oropesa",
    "code": "RTI-02",
    "route": [
      {
        "name": "Puente Sipaspucyo",
        "location": {
          "lat": -13.52227854032753,
          "lng": -71.98771566389823
        }
      },
      {
        "name": "Puente de la Almudena",
        "location": {
          "lat": -13.522631587368947,
          "lng": -71.98647100883586
        }
      },
      {
        "name": "Puente Santiago",
        "location": {
          "lat": -13.523509282555587,
          "lng": -71.98301777015067
        }
      },
      {
        "name": "Pera",
        "location": {
          "lat": -13.52395905710444,
          "lng": -71.98126427008053
        }
      },
      {
        "name": "Puente Belén",
        "location": {
          "lat": -13.524214999289166,
          "lng": -71.98027473126007
        }
      },
      {
        "name": "Puente Grau ejercito",
        "location": {
          "lat": -13.525290815482531,
          "lng": -71.97645355386156
        }
      },
      {
        "name": "Gradas",
        "location": {
          "lat": -13.526197204270124,
          "lng": -71.97344240291812
        }
      },
      {
        "name": "Estación",
        "location": {
          "lat": -13.525644166046678,
          "lng": -71.97202826152366
        }
      },
      {
        "name": "La Salle(subidaLa Salle)",
        "location": {
          "lat": -13.522659405963207,
          "lng": -71.97295469835984
        }
      },
      {
        "name": "Mercado Wanchaq",
        "location": {
          "lat": -13.522428198917847,
          "lng": -71.97233149918758
        }
      },
      {
        "name": "Manco Inca",
        "location": {
          "lat": -13.52261238771284,
          "lng": -71.97102501605578
        }
      },
      {
        "name": "Huayna Capac",
        "location": {
          "lat": -13.522825358523258,
          "lng": -71.96988870113522
        }
      },
      {
        "name": "Tacna",
        "location": {
          "lat": -13.522982316111595,
          "lng": -71.96872504968312
        }
      },
      {
        "name": "Plaza Túpac Amaru",
        "location": {
          "lat": -13.523404455987647,
          "lng": -71.96672182769576
        }
      },
      {
        "name": "Segundo",
        "location": {
          "lat": -13.524502695718983,
          "lng": -71.9641497241298
        }
      },
      {
        "name": "Región",
        "location": {
          "lat": -13.524829277780542,
          "lng": -71.96327773033293
        }
      },
      {
        "name": "Seguro",
        "location": {
          "lat": -13.525628380991197,
          "lng": -71.96133284869471
        }
      },
      {
        "name": "Espinar",
        "location": {
          "lat": -13.526581895981675,
          "lng": -71.95899685778383
        }
      },
      {
        "name": "Coliseo",
        "location": {
          "lat": -13.525621685872098,
          "lng": -71.95744015011809
        }
      },
      {
        "name": "Hospital Regional",
        "location": {
          "lat": -13.524473967615657,
          "lng": -71.95626285928323
        }
      },
      {
        "name": "Manuel Prado",
        "location": {
          "lat": -13.525736587902498,
          "lng": -71.95196221699389
        }
      },
      {
        "name": "Magisterio",
        "location": {
          "lat": -13.526705866234407,
          "lng": -71.94887952422619
        }
      },
      {
        "name": "Marcavalle",
        "location": {
          "lat": -13.527464308545843,
          "lng": -71.94615587236648
        }
      },
      {
        "name": "Santa Ursula",
        "location": {
          "lat": -13.527795690068562,
          "lng": -71.94333863965413
        }
      },
      {
        "name": "Primer paradero de San Sebastián",
        "location": {
          "lat": -13.528193249388455,
          "lng": -71.94018526301657
        }
      },
      {
        "name": "Callejón",
        "location": {
          "lat": -13.528728880776407,
          "lng": -71.93834060938691
        }
      },
      {
        "name": "Segundo paradero de San Sebastián",
        "location": {
          "lat": -13.529330563309049,
          "lng": -71.9362245362867
        }
      },
      {
        "name": "Tercero paradero de San Sebastián",
        "location": {
          "lat": -13.529658446725437,
          "lng": -71.93496250356029
        }
      },
      {
        "name": "Cuarto paradero de San Sebastián",
        "location": {
          "lat": -13.530284676783914,
          "lng": -71.93280987118418
        }
      },
      {
        "name": "Quinto paradero de San Sebastián",
        "location": {
          "lat": -13.531073107156718,
          "lng": -71.93009082154326
        }
      },
      {
        "name": "Sexto paradero de San Sebastián",
        "location": {
          "lat": -13.53150618723304,
          "lng": -71.92835825349091
        }
      },
      {
        "name": "Séptimo paradero de San Sebastián",
        "location": {
          "lat": -13.53229298699121,
          "lng": -71.92571276515717
        }
      },
      {
        "name": "Camionero",
        "location": {
          "lat": -13.53302870660512,
          "lng": -71.92269590581027
        }
      },
      {
        "name": "Santa Rosa",
        "location": {
          "lat": -13.532857178742448,
          "lng": -71.92090292990267
        }
      },
      {
        "name": "Mercadillo",
        "location": {
          "lat": -13.532514677489024,
          "lng": -71.9193561097896
        }
      },
      {
        "name": "San Miguel",
        "location": {
          "lat": -13.531765746120982,
          "lng": -71.91619485062255
        }
      },
      {
        "name": "Sol de Oro",
        "location": {
          "lat": -13.5319909959673,
          "lng": -71.91430716139831
        }
      },
      {
        "name": "Enaco",
        "location": {
          "lat": -13.533597036001527,
          "lng": -71.91189349444828
        }
      },
      {
        "name": "Cachimayo",
        "location": {
          "lat": -13.535385233636358,
          "lng": -71.90926541568524
        }
      },
      {
        "name": "Puente",
        "location": {
          "lat": -13.53635067456182,
          "lng": -71.90770696115035
        }
      },
      {
        "name": "Grifo",
        "location": {
          "lat": -13.536960382610417,
          "lng": -71.90680389749781
        }
      },
      {
        "name": "Universidad Andina",
        "location": {
          "lat": -13.5386855027454,
          "lng": -71.90415142310371
        }
      },
      {
        "name": "Teléfono",
        "location": {
          "lat": -13.539535889574514,
          "lng": -71.90297443193317
        }
      },
      {
        "name": "Tingo",
        "location": {
          "lat": -13.540785265181189,
          "lng": -71.90125454267654
        }
      },
      {
        "name": "Aprovite",
        "location": {
          "lat": -13.541820755214406,
          "lng": -71.8997920052805
        }
      },
      {
        "name": "San Martín",
        "location": {
          "lat": -13.542954619876825,
          "lng": -71.89817198804033
        }
      },
      {
        "name": "Miraflores",
        "location": {
          "lat": -13.54461627363419,
          "lng": -71.89580443596408
        }
      },
      {
        "name": "Penal",
        "location": {
          "lat": -13.545133850139878,
          "lng": -71.89473223926336
        }
      },
      {
        "name": "San Juan",
        "location": {
          "lat": -13.54589620690304,
          "lng": -71.89211010406221
        }
      },
      {
        "name": "Control-corporation roca",
        "location": {
          "lat": -13.546458319463957,
          "lng": -71.88966081845638
        }
      },
      {
        "name": "Farmacia",
        "location": {
          "lat": -13.547155675651899,
          "lng": -71.88660276071795
        }
      },
      {
        "name": "Paradero Medio",
        "location": {
          "lat": -13.547585495425889,
          "lng": -71.88506649302744
        }
      },
      {
        "name": "Tercer Paradero",
        "location": {
          "lat": -13.548247770254532,
          "lng": -71.8826804687899
        }
      },
      {
        "name": "Romeritos",
        "location": {
          "lat": -13.548673897120981,
          "lng": -71.88098718387026
        }
      },
      {
        "name": "Posta",
        "location": {
          "lat": -13.54891542279444,
          "lng": -71.88006365817147
        }
      },
      {
        "name": "Tapia",
        "location": {
          "lat": -13.549606087243411,
          "lng": -71.87764209936809
        }
      },
      {
        "name": "Forestal",
        "location": {
          "lat": -13.550072337773916,
          "lng": -71.87605823526194
        }
      },
      {
        "name": "Kayra",
        "location": {
          "lat": -13.550656830178644,
          "lng": -71.87404348243453
        }
      },
      {
        "name": "Puente Huacoto",
        "location": {
          "lat": -13.551596450945556,
          "lng": -71.8704017701724
        }
      },
      {
        "name": "Collana",
        "location": {
          "lat": -13.552375895071172,
          "lng": -71.86725888450583
        }
      },
      {
        "name": "U Andina",
        "location": {
          "lat": -13.552876952211236,
          "lng": -71.86518039149347
        }
      },
      {
        "name": "Kinta",
        "location": {
          "lat": -13.553102071822366,
          "lng": -71.86390522302383
        }
      },
      {
        "name": "Entrada",
        "location": {
          "lat": -13.55345026468987,
          "lng": -71.86151412400505
        }
      },
      {
        "name": "Peaje",
        "location": {
          "lat": -13.555573252042572,
          "lng": -71.85623548464778
        }
      },
      {
        "name": "Llamagas",
        "location": {
          "lat": -13.558653516505617,
          "lng": -71.85134634349772
        }
      },
      {
        "name": "Angostura",
        "location": {
          "lat": -13.560948634123559,
          "lng": -71.8461374634611
        }
      },
      {
        "name": "Saywas",
        "location": {
          "lat": -13.563303942021593,
          "lng": -71.84099314100294
        }
      },
      {
        "name": "Bosque",
        "location": {
          "lat": -13.56565658453261,
          "lng": -71.83592800427805
        }
      },
      {
        "name": "Cristal",
        "location": {
          "lat": -13.56693779228231,
          "lng": -71.83310973906204
        }
      },
      {
        "name": "Cruce",
        "location": {
          "lat": -13.567661718831275,
          "lng": -71.8315446137458
        }
      },
      {
        "name": "Primero",
        "location": {
          "lat": -13.569699533378394,
          "lng": -71.8288705089004
        }
      },
      {
        "name": "Segundo",
        "location": {
          "lat": -13.571038481673751,
          "lng": -71.82736968618754
        }
      },
      {
        "name": "Tercero",
        "location": {
          "lat": -13.57194446121075,
          "lng": -71.82636163493953
        }
      },
      {
        "name": "Estadio",
        "location": {
          "lat": -13.572409268201104,
          "lng": -71.82577912934576
        }
      },
      {
        "name": "Chingo",
        "location": {
          "lat": -13.575239290793519,
          "lng": -71.82004887667595
        }
      },
      {
        "name": "Rico Pollo",
        "location": {
          "lat": -13.577380997083976,
          "lng": -71.81684358374957
        }
      },
      {
        "name": "Nuevo Huasao",
        "location": {
          "lat": -13.584319495574379,
          "lng": -71.80743976052902
        }
      },
      {
        "name": "Alicorp",
        "location": {
          "lat": -13.58602590669231,
          "lng": -71.80511320422531
        }
      },
      {
        "name": "Real Naciente Huasao",
        "location": {
          "lat": -13.58729052632119,
          "lng": -71.80339620380937
        }
      },
      {
        "name": "Tipón",
        "location": {
          "lat": -13.590783961126983,
          "lng": -71.78947134427312
        }
      },
      {
        "name": "Chancadora",
        "location": {
          "lat": -13.592332866718703,
          "lng": -71.78602430281788
        }
      },
      {
        "name": "Campamento",
        "location": {
          "lat": -13.597955692230563,
          "lng": -71.7735509140861
        }
      },
      {
        "name": "Campamento (corrección)",
        "location": {
          "lat": -13.597844960031912,
          "lng": -71.7739171469302
        }
      },
      {
        "name": "Grifo Pecsa",
        "location": {
          "lat": -13.599147160318669,
          "lng": -71.76966913048092
        }
      },
      {
        "name": "Comisaría de Oropesa",
        "location": {
          "lat": -13.600333841727533,
          "lng": -71.76584057864913
        }
      },
      {
        "name": "Patacalle",
        "location": {
          "lat": -13.597202136739666,
          "lng": -71.76435226017416
        }
      },
      {
        "name": "Perú",
        "location": {
          "lat": -13.595699791578458,
          "lng": -71.7636886883224
        }
      },
      {
        "name": "Plaza de Oropesa",
        "location": {
          "lat": -13.594278277252558,
          "lng": -71.76304835159966
        }
      }
    ]
  },
  {
    "name": "Pachacute",
    "code": "RTI-04",
    "route": [
      {
        "name": "Límite Provincial Cusco - Anta",
        "location": {
          "lat": -13.490767251675637,
          "lng": -72.0515174862028
        }
      },
      {
        "name": "Quinta Campestre",
        "location": {
          "lat": -13.492857406368035,
          "lng": -72.04807755099979
        }
      },
      {
        "name": "Chicharonerías",
        "location": {
          "lat": -13.493568610597553,
          "lng": -72.04641376006407
        }
      },
      {
        "name": "Entrada a Estadio de Poroy",
        "location": {
          "lat": -13.494428420310427,
          "lng": -72.04450340283391
        }
      },
      {
        "name": "Poroy",
        "location": {
          "lat": -13.495449238276324,
          "lng": -72.0424374890504
        }
      },
      {
        "name": "Entrada Ferrocarril",
        "location": {
          "lat": -13.4958198325494,
          "lng": -72.04085630340333
        }
      },
      {
        "name": "Grifo",
        "location": {
          "lat": -13.497443204120483,
          "lng": -72.03614238504936
        }
      },
      {
        "name": "Entrada Cementerio",
        "location": {
          "lat": -13.498581661234267,
          "lng": -72.03385173553778
        }
      },
      {
        "name": "Action Valley",
        "location": {
          "lat": -13.503976111915126,
          "lng": -72.03038807238939
        }
      },
      {
        "name": "Grifo Primax",
        "location": {
          "lat": -13.50437260737993,
          "lng": -72.02370793089722
        }
      },
      {
        "name": "Huampar",
        "location": {
          "lat": -13.504937312275013,
          "lng": -72.02073169727805
        }
      },
      {
        "name": "Asociación Kantu",
        "location": {
          "lat": -13.503108236034178,
          "lng": -72.01777545041159
        }
      },
      {
        "name": "Paradero Pepsi",
        "location": {
          "lat": -13.505698232059496,
          "lng": -72.01321507812906
        }
      },
      {
        "name": "Paradero Sat",
        "location": {
          "lat": -13.50718156046804,
          "lng": -72.01027155223728
        }
      },
      {
        "name": "Arco Tica Tica",
        "location": {
          "lat": -13.507588493410763,
          "lng": -72.00666051759957
        }
      },
      {
        "name": "Quinta Mollendinah",
        "location": {
          "lat": -13.508166221733074,
          "lng": -72.00478772232204
        }
      },
      {
        "name": "Reservorio",
        "location": {
          "lat": -13.50765310950269,
          "lng": -72.00227593011032
        }
      },
      {
        "name": "Huanca",
        "location": {
          "lat": -13.507571558079338,
          "lng": -72.00093828231552
        }
      },
      {
        "name": "Huasa Huara",
        "location": {
          "lat": -13.507399560135843,
          "lng": -71.99872510557314
        }
      },
      {
        "name": "Posta Miraflores",
        "location": {
          "lat": -13.507478957433985,
          "lng": -71.9974952339413
        }
      },
      {
        "name": "Mercado Tica Tica",
        "location": {
          "lat": -13.507516352815172,
          "lng": -71.99608767119416
        }
      },
      {
        "name": "Arco de Tica Tica",
        "location": {
          "lat": -13.507047586601516,
          "lng": -71.99445002498774
        }
      },
      {
        "name": "Jayanca",
        "location": {
          "lat": -13.508197738031186,
          "lng": -71.99346252237792
        }
      },
      {
        "name": "San Benito",
        "location": {
          "lat": -13.50954523185035,
          "lng": -71.99297959650985
        }
      },
      {
        "name": "Villa María",
        "location": {
          "lat": -13.513283479045338,
          "lng": -71.99145033302806
        }
      },
      {
        "name": "Mirador",
        "location": {
          "lat": -13.515495280478577,
          "lng": -71.99155876235874
        }
      },
      {
        "name": "Desvío",
        "location": {
          "lat": -13.51622532220477,
          "lng": -71.9931641507962
        }
      },
      {
        "name": "La Ñusta",
        "location": {
          "lat": -13.517408243095126,
          "lng": -71.99546533049526
        }
      },
      {
        "name": "Paradero Zorro",
        "location": {
          "lat": -13.518275445682592,
          "lng": -71.99520979494055
        }
      },
      {
        "name": "Gradas",
        "location": {
          "lat": -13.520470811624866,
          "lng": -71.99397320956977
        }
      },
      {
        "name": "Loza",
        "location": {
          "lat": -13.52007754074533,
          "lng": -71.99415076389495
        }
      },
      {
        "name": "San Isidro",
        "location": {
          "lat": -13.521451527880902,
          "lng": -71.99436178979239
        }
      },
      {
        "name": "Paradero Nihuas",
        "location": {
          "lat": -13.523032308304472,
          "lng": -71.99710377483026
        }
      },
      {
        "name": "Entrada",
        "location": {
          "lat": -13.524809486156055,
          "lng": -71.9922959265571
        }
      },
      {
        "name": "Puente",
        "location": {
          "lat": -13.525301963059212,
          "lng": -71.99193305369809
        }
      },
      {
        "name": "Chicago",
        "location": {
          "lat": -13.526349292300651,
          "lng": -71.99101226096165
        }
      },
      {
        "name": "Curva",
        "location": {
          "lat": -13.528081980821097,
          "lng": -71.98951066995055
        }
      },
      {
        "name": "Grifo Terminal",
        "location": {
          "lat": -13.526745683959179,
          "lng": -71.98932394512786
        }
      },
      {
        "name": "Terminal de Quillabamba",
        "location": {
          "lat": -13.525474493238212,
          "lng": -71.98903574650758
        }
      },
      {
        "name": "Almudena",
        "location": {
          "lat": -13.525977176789878,
          "lng": -71.9874342437958
        }
      },
      {
        "name": "Los Ángeles",
        "location": {
          "lat": -13.52602803532868,
          "lng": -71.98469851005572
        }
      },
      {
        "name": "Esquina Plaza Santiago",
        "location": {
          "lat": -13.525479946153322,
          "lng": -71.98378211796806
        }
      },
      {
        "name": "Parque Plaza Santiago",
        "location": {
          "lat": -13.525101239958365,
          "lng": -71.98322687706188
        }
      },
      {
        "name": "Puente Santiago",
        "location": {
          "lat": -13.522805310477628,
          "lng": -71.98247067811731
        }
      },
      {
        "name": "Tres Cruces de Oro, 240a",
        "location": {
          "lat": -13.522679463888107,
          "lng": -71.98154029735002
        }
      },
      {
        "name": "Belén",
        "location": {
          "lat": -13.523533258289838,
          "lng": -71.97951966325776
        }
      },
      {
        "name": "Puente Grau paradero",
        "location": {
          "lat": -13.524283155956805,
          "lng": -71.97816702250941
        }
      },
      {
        "name": "Colegio Rosario",
        "location": {
          "lat": -13.522990338561778,
          "lng": -71.97729318071401
        }
      },
      {
        "name": "Humberto Luna",
        "location": {
          "lat": -13.523865668173276,
          "lng": -71.97623287512116
        }
      },
      {
        "name": "Correo",
        "location": {
          "lat": -13.523170246801234,
          "lng": -71.97443997799354
        }
      },
      {
        "name": "La Salle",
        "location": {
          "lat": -13.522440041921502,
          "lng": -71.97324173978173
        }
      },
      {
        "name": "Mercado Wanchaq",
        "location": {
          "lat": -13.522428198917847,
          "lng": -71.97233149918758
        }
      },
      {
        "name": "Manco Inca",
        "location": {
          "lat": -13.52261238771284,
          "lng": -71.97102501605578
        }
      },
      {
        "name": "Huayna Capac",
        "location": {
          "lat": -13.522825358523258,
          "lng": -71.96988870113522
        }
      },
      {
        "name": "Garcilaso",
        "location": {
          "lat": -13.521317532907313,
          "lng": -71.96651320899271
        }
      },
      {
        "name": "Puerta 6",
        "location": {
          "lat": -13.520892695076501,
          "lng": -71.96085915573181
        }
      },
      {
        "name": "Collasuyo",
        "location": {
          "lat": -13.519688254582398,
          "lng": -71.96067812481294
        }
      },
      {
        "name": "Andenes",
        "location": {
          "lat": -13.52009252256531,
          "lng": -71.95801373129119
        }
      },
      {
        "name": "Paradero Kiosko",
        "location": {
          "lat": -13.520581495959867,
          "lng": -71.95546254764842
        }
      },
      {
        "name": "Paradero Aldea",
        "location": {
          "lat": -13.520706914864077,
          "lng": -71.95464644810811
        }
      },
      {
        "name": "Manzanares",
        "location": {
          "lat": -13.52108602409088,
          "lng": -71.95300701877257
        }
      },
      {
        "name": "Plaza Vea",
        "location": {
          "lat": -13.521736144725987,
          "lng": -71.9500031915857
        }
      },
      {
        "name": "Restaurante",
        "location": {
          "lat": -13.522635434247318,
          "lng": -71.94615345569918
        }
      },
      {
        "name": "Imperio",
        "location": {
          "lat": -13.523155567486477,
          "lng": -71.94470393497726
        }
      },
      {
        "name": "Universidad Global",
        "location": {
          "lat": -13.524177567417999,
          "lng": -71.94369061051817
        }
      },
      {
        "name": "Paradero",
        "location": {
          "lat": -13.5249081908304,
          "lng": -71.94297054056183
        }
      },
      {
        "name": "Trilce",
        "location": {
          "lat": -13.525339515245397,
          "lng": -71.94253051984897
        }
      },
      {
        "name": "Esquina",
        "location": {
          "lat": -13.525709644683547,
          "lng": -71.94107301843682
        }
      },
      {
        "name": "Iquique",
        "location": {
          "lat": -13.525916221478433,
          "lng": -71.93963699526554
        }
      },
      {
        "name": "Calle Bolívar",
        "location": {
          "lat": -13.524906727683936,
          "lng": -71.93946447223723
        }
      },
      {
        "name": "Velasco Alvarado",
        "location": {
          "lat": -13.525396848557518,
          "lng": -71.93836268640094
        }
      },
      {
        "name": "Albergue",
        "location": {
          "lat": -13.526081943982572,
          "lng": -71.93667112568419
        }
      },
      {
        "name": "Rompemuelle",
        "location": {
          "lat": -13.527541816706869,
          "lng": -71.93567317140175
        }
      },
      {
        "name": "Esquina Segundo Paradero de San Sebastián",
        "location": {
          "lat": -13.529054012729409,
          "lng": -71.93599579521914
        }
      },
      {
        "name": "3er Paradero SS",
        "location": {
          "lat": -13.529658446725437,
          "lng": -71.93496250356029
        }
      },
      {
        "name": "4to Paradero SS",
        "location": {
          "lat": -13.530284676783914,
          "lng": -71.93280987118418
        }
      },
      {
        "name": "5to Paradero SS",
        "location": {
          "lat": -13.531073107156718,
          "lng": -71.93009082154326
        }
      },
      {
        "name": "6to Paradero SSz",
        "location": {
          "lat": -13.53150618723304,
          "lng": -71.92835825349091
        }
      },
      {
        "name": "7mo Paradero SS",
        "location": {
          "lat": -13.53229298699121,
          "lng": -71.92571276515717
        }
      },
      {
        "name": "Camionero",
        "location": {
          "lat": -13.53302870660512,
          "lng": -71.92269590581027
        }
      },
      {
        "name": "Santa Rosa",
        "location": {
          "lat": -13.532857178742448,
          "lng": -71.92090292990267
        }
      },
      {
        "name": "Mercadillo",
        "location": {
          "lat": -13.532514677489024,
          "lng": -71.9193561097896
        }
      },
      {
        "name": "San Miguel",
        "location": {
          "lat": -13.531765746120982,
          "lng": -71.91619485062255
        }
      },
      {
        "name": "Sol de Oro",
        "location": {
          "lat": -13.5319909959673,
          "lng": -71.91430716139831
        }
      },
      {
        "name": "Enaco",
        "location": {
          "lat": -13.533597036001527,
          "lng": -71.91189349444828
        }
      },
      {
        "name": "Cachimayo",
        "location": {
          "lat": -13.535385233636358,
          "lng": -71.90926541568524
        }
      },
      {
        "name": "Puente Túpac Amaru",
        "location": {
          "lat": -13.53635067456182,
          "lng": -71.90770696115035
        }
      },
      {
        "name": "Grifo Móvil",
        "location": {
          "lat": -13.536960382610417,
          "lng": -71.90680389749781
        }
      },
      {
        "name": "Universidad Andina",
        "location": {
          "lat": -13.5386855027454,
          "lng": -71.90415142310371
        }
      },
      {
        "name": "Teléfono",
        "location": {
          "lat": -13.539535889574514,
          "lng": -71.90297443193317
        }
      },
      {
        "name": "Tingo",
        "location": {
          "lat": -13.540785265181189,
          "lng": -71.90125454267654
        }
      },
      {
        "name": "Aprovite",
        "location": {
          "lat": -13.541820755214406,
          "lng": -71.8997920052805
        }
      },
      {
        "name": "Grifo San Martín",
        "location": {
          "lat": -13.542797266136303,
          "lng": -71.89842551451899
        }
      },
      {
        "name": "Entrada Sucucalle",
        "location": {
          "lat": -13.545190323762919,
          "lng": -71.89926414563625
        }
      },
      {
        "name": "Puente Huatanay",
        "location": {
          "lat": -13.546775738638745,
          "lng": -71.89677221324048
        }
      },
      {
        "name": "Santa Elena",
        "location": {
          "lat": -13.547861788594028,
          "lng": -71.89506314734203
        }
      },
      {
        "name": "Medio",
        "location": {
          "lat": -13.548701121720018,
          "lng": -71.89534538179933
        }
      },
      {
        "name": "Alameda 4 de Octubres",
        "location": {
          "lat": -13.549874112639525,
          "lng": -71.8960024845203
        }
      }
    ]
  },
  {
    "name": "Leon de San Jeronimo",
    "code": "RTI-05",
    "route": [
      {
        "name": "Puquín - Hermanos Ayar",
        "location": {
          "lat": -13.531300321917207,
          "lng": -71.99500169646142
        }
      },
      {
        "name": "Hermanos Ayar",
        "location": {
          "lat": -13.529779923068453,
          "lng": -71.99393360166458
        }
      },
      {
        "name": "Tienda",
        "location": {
          "lat": -13.529863458778841,
          "lng": -71.9932214742067
        }
      },
      {
        "name": "1 de Mayo",
        "location": {
          "lat": -13.531321117824614,
          "lng": -71.9931993077235
        }
      },
      {
        "name": "1 de Diciembre",
        "location": {
          "lat": -13.529199577356009,
          "lng": -71.99216960197946
        }
      },
      {
        "name": "Sol Moqueguano",
        "location": {
          "lat": -13.528364162885381,
          "lng": -71.99209701020281
        }
      },
      {
        "name": "Curva",
        "location": {
          "lat": -13.52699426226316,
          "lng": -71.99232833217438
        }
      },
      {
        "name": "Escaleras",
        "location": {
          "lat": -13.528003511082185,
          "lng": -71.99149977890829
        }
      },
      {
        "name": "Esquina",
        "location": {
          "lat": -13.527376031476681,
          "lng": -71.99118214472274
        }
      },
      {
        "name": "Chicago",
        "location": {
          "lat": -13.526384745800447,
          "lng": -71.99100898184264
        }
      },
      {
        "name": "Curva",
        "location": {
          "lat": -13.528081980821097,
          "lng": -71.98951066995055
        }
      },
      {
        "name": "Grifo Terminal",
        "location": {
          "lat": -13.526745683959179,
          "lng": -71.98932394512786
        }
      },
      {
        "name": "Terminal de Quillabamba",
        "location": {
          "lat": -13.525474493238212,
          "lng": -71.98903574650758
        }
      },
      {
        "name": "Almudena",
        "location": {
          "lat": -13.525977176789878,
          "lng": -71.9874342437958
        }
      },
      {
        "name": "7 Mascarrones",
        "location": {
          "lat": -13.524624734107995,
          "lng": -71.9860438340637
        }
      },
      {
        "name": "Villa del Sol",
        "location": {
          "lat": -13.524825125516703,
          "lng": -71.98545613459665
        }
      },
      {
        "name": "Esquina Plaza Santiago",
        "location": {
          "lat": -13.525479946153322,
          "lng": -71.98378211796806
        }
      },
      {
        "name": "Colegio Fe y Alegría",
        "location": {
          "lat": -13.526165040068918,
          "lng": -71.98198980252445
        }
      },
      {
        "name": "Plaza Belén",
        "location": {
          "lat": -13.526584631060507,
          "lng": -71.98074086655129
        }
      },
      {
        "name": "Puente Belén",
        "location": {
          "lat": -13.52373993273681,
          "lng": -71.97997802482969
        }
      },
      {
        "name": "Ayacucho",
        "location": {
          "lat": -13.51948365181845,
          "lng": -71.97761927589094
        }
      },
      {
        "name": "El Sol",
        "location": {
          "lat": -13.519527881754883,
          "lng": -71.97648569498786
        }
      },
      {
        "name": "Pampa del Castillo",
        "location": {
          "lat": -13.519816620671133,
          "lng": -71.97628435637807
        }
      },
      {
        "name": "Limacpampa",
        "location": {
          "lat": -13.51985299601859,
          "lng": -71.97340776265365
        }
      },
      {
        "name": "Huáscar",
        "location": {
          "lat": -13.520187295257758,
          "lng": -71.9714780010104
        }
      },
      {
        "name": "Tacna -Corinda Matto",
        "location": {
          "lat": -13.52062921878832,
          "lng": -71.9687721829894
        }
      },
      {
        "type": "REFERENCE",
        "value": "culturaRoutes"
      },
      {
        "name": "Camionero",
        "location": {
          "lat": -13.53302870660512,
          "lng": -71.92269590581027
        }
      },
      {
        "name": "Santa Rosa",
        "location": {
          "lat": -13.532857178742448,
          "lng": -71.92090292990267
        }
      },
      {
        "name": "Mercadillo",
        "location": {
          "lat": -13.532514677489024,
          "lng": -71.9193561097896
        }
      },
      {
        "name": "San Miguel",
        "location": {
          "lat": -13.531765746120982,
          "lng": -71.91619485062255
        }
      },
      {
        "name": "Sol de Oro",
        "location": {
          "lat": -13.5319909959673,
          "lng": -71.91430716139831
        }
      },
      {
        "name": "Enaco",
        "location": {
          "lat": -13.533597036001527,
          "lng": -71.91189349444828
        }
      },
      {
        "name": "Cachimayo",
        "location": {
          "lat": -13.535385233636358,
          "lng": -71.90926541568524
        }
      },
      {
        "name": "Puente Túpac Amaru",
        "location": {
          "lat": -13.53635067456182,
          "lng": -71.90770696115035
        }
      },
      {
        "name": "Grifo Móvil",
        "location": {
          "lat": -13.536960382610417,
          "lng": -71.90680389749781
        }
      },
      {
        "name": "Universidad Andina",
        "location": {
          "lat": -13.5386855027454,
          "lng": -71.90415142310371
        }
      },
      {
        "name": "Teléfono",
        "location": {
          "lat": -13.539535889574514,
          "lng": -71.90297443193317
        }
      },
      {
        "name": "Tingo",
        "location": {
          "lat": -13.540785265181189,
          "lng": -71.90125454267654
        }
      },
      {
        "name": "Aprovite",
        "location": {
          "lat": -13.541820755214406,
          "lng": -71.8997920052805
        }
      },
      {
        "name": "San Martín",
        "location": {
          "lat": -13.542954619876825,
          "lng": -71.89817198804033
        }
      },
      {
        "name": "Miraflores",
        "location": {
          "lat": -13.54461627363419,
          "lng": -71.89580443596408
        }
      },
      {
        "name": "Penal",
        "location": {
          "lat": -13.545133850139878,
          "lng": -71.89473223926336
        }
      },
      {
        "name": "San Juan",
        "location": {
          "lat": -13.54589620690304,
          "lng": -71.89211010406221
        }
      },
      {
        "name": "Control",
        "location": {
          "lat": -13.546039012482021,
          "lng": -71.8899699749744
        }
      },
      {
        "name": "Esquina Mercado",
        "location": {
          "lat": -13.544062872748604,
          "lng": -71.8887845212686
        }
      },
      {
        "name": "Puerta 7-Mercado Vinocanchón",
        "location": {
          "lat": -13.544341779606633,
          "lng": -71.88776365990275
        }
      },
      {
        "name": "La Cultura",
        "location": {
          "lat": -13.546572637605793,
          "lng": -71.88793929080937
        }
      },
      {
        "name": "Farmacia",
        "location": {
          "lat": -13.547155675651899,
          "lng": -71.88660276071795
        }
      },
      {
        "name": "Paradero Medio",
        "location": {
          "lat": -13.547585495425889,
          "lng": -71.88506649302744
        }
      },
      {
        "name": "Tercer Paradero",
        "location": {
          "lat": -13.548247770254532,
          "lng": -71.8826804687899
        }
      },
      {
        "name": "Romeritos",
        "location": {
          "lat": -13.548673897120981,
          "lng": -71.88098718387026
        }
      },
      {
        "name": "Posta",
        "location": {
          "lat": -13.54891542279444,
          "lng": -71.88006365817147
        }
      },
      {
        "name": "Tapia",
        "location": {
          "lat": -13.549606087243411,
          "lng": -71.87764209936809
        }
      },
      {
        "name": "Forestal",
        "location": {
          "lat": -13.550072337773916,
          "lng": -71.87605823526194
        }
      },
      {
        "name": "Kayra",
        "location": {
          "lat": -13.550656830178644,
          "lng": -71.87404348243453
        }
      },
      {
        "name": "Puente Huacoto",
        "location": {
          "lat": -13.551596450945556,
          "lng": -71.8704017701724
        }
      },
      {
        "name": "Collana",
        "location": {
          "lat": -13.552375895071172,
          "lng": -71.86725888450583
        }
      },
      {
        "name": "Prolongación Perú",
        "location": {
          "lat": -13.550081024973966,
          "lng": -71.86694309848943
        }
      },
      {
        "name": "Bosquecillo",
        "location": {
          "lat": -13.548380080481179,
          "lng": -71.86700422554162
        }
      },
      {
        "name": "Estadio de Collana",
        "location": {
          "lat": -13.547176718730777,
          "lng": -71.8667615541266
        }
      }
    ]
  },
  {
    "name": "Señor del Huerto",
    "code": "RTI-06",
    "route": [
      {
        "name": "Final Ccorimarca",
        "location": {
          "lat": -13.468676474688694,
          "lng": -71.94013762151458
        }
      },
      {
        "name": "Entrada a Sequeracay",
        "location": {
          "lat": -13.46572525969196,
          "lng": -71.93412207787472
        }
      },
      {
        "name": "Sequer",
        "location": {
          "lat": -13.46195780320411,
          "lng": -71.92664738038849
        }
      },
      {
        "name": "Chitapampa",
        "location": {
          "lat": -13.465590653693754,
          "lng": -71.9216980245103
        }
      },
      {
        "name": "APV Incaqsamanan",
        "location": {
          "lat": -13.467549790659804,
          "lng": -71.92051797212044
        }
      },
      {
        "name": "Esquina",
        "location": {
          "lat": -13.471502432600325,
          "lng": -71.92084296404434
        }
      },
      {
        "name": "Cruce",
        "location": {
          "lat": -13.472569376729068,
          "lng": -71.92161959988243
        }
      },
      {
        "name": "Mercado de Productores de Corao",
        "location": {
          "lat": -13.474149410085545,
          "lng": -71.92246654970597
        }
      },
      {
        "name": "Corao",
        "location": {
          "lat": -13.476221458935614,
          "lng": -71.92369097124309
        }
      },
      {
        "name": "Tienda de Abarrotes",
        "location": {
          "lat": -13.478482002956456,
          "lng": -71.92502506470645
        }
      },
      {
        "name": "1 de Marzo",
        "location": {
          "lat": -13.481317272328736,
          "lng": -71.92307336732911
        }
      },
      {
        "name": "Entrada a Yuncaypata",
        "location": {
          "lat": -13.48602413404123,
          "lng": -71.94647348182897
        }
      },
      {
        "name": "Tambomachay",
        "location": {
          "lat": -13.481076862265125,
          "lng": -71.96427057477004
        }
      },
      {
        "name": "Puka Pucara",
        "location": {
          "lat": -13.483734999133677,
          "lng": -71.96294283398164
        }
      },
      {
        "name": "Huayllarccocha",
        "location": {
          "lat": -13.488864537067213,
          "lng": -71.96436371783426
        }
      },
      {
        "name": "Zona X",
        "location": {
          "lat": -13.496744970708352,
          "lng": -71.97292881019114
        }
      },
      {
        "name": "Q'enqo",
        "location": {
          "lat": -13.50814161251225,
          "lng": -71.9706744245526
        }
      },
      {
        "name": "Desvío",
        "location": {
          "lat": -13.508449247438206,
          "lng": -71.97299955745181
        }
      },
      {
        "name": "Entrada a Sacsayhuamán",
        "location": {
          "lat": -13.507911950913861,
          "lng": -71.97522813365427
        }
      },
      {
        "name": "Cristo Blanco",
        "location": {
          "lat": -13.51035094934579,
          "lng": -71.97627468356997
        }
      },
      {
        "name": "Señal",
        "location": {
          "lat": -13.510664081369852,
          "lng": -71.97476165600935
        }
      },
      {
        "name": "Chozas",
        "location": {
          "lat": -13.511785190016566,
          "lng": -71.97340034455713
        }
      },
      {
        "name": "Mesa",
        "location": {
          "lat": -13.51208159258403,
          "lng": -71.97232098213398
        }
      },
      {
        "name": "Entrada",
        "location": {
          "lat": -13.51205375280376,
          "lng": -71.97134941368724
        }
      },
      {
        "name": "Camino Qhapaq Ñan",
        "location": {
          "lat": -13.511355770705139,
          "lng": -71.97028337702012
        }
      },
      {
        "name": "Mosocllacta",
        "location": {
          "lat": -13.513328750606108,
          "lng": -71.96736675057626
        }
      },
      {
        "name": "Balconcillo",
        "location": {
          "lat": -13.514025489171894,
          "lng": -71.96682684751514
        }
      },
      {
        "name": "Cruz de Tete Qaqa",
        "location": {
          "lat": -13.514644456971837,
          "lng": -71.96546173283649
        }
      },
      {
        "name": "Palacio del Inka",
        "location": {
          "lat": -13.514033200706,
          "lng": -71.96334940152671
        }
      },
      {
        "name": "Lucrepata",
        "location": {
          "lat": -13.516202969365496,
          "lng": -71.96192606247659
        }
      },
      {
        "name": "Media Luna",
        "location": {
          "lat": -13.516393604178788,
          "lng": -71.96067071286122
        }
      },
      {
        "name": "Mirador Kanka",
        "location": {
          "lat": -13.516493361803846,
          "lng": -71.95900857967659
        }
      },
      {
        "name": "Lorohuachana",
        "location": {
          "lat": -13.516713651675687,
          "lng": -71.95713304767037
        }
      },
      {
        "name": "Hotel Mirador",
        "location": {
          "lat": -13.517055573695204,
          "lng": -71.95944739722432
        }
      },
      {
        "name": "Andes Perú",
        "location": {
          "lat": -13.517574907748967,
          "lng": -71.96036788357054
        }
      },
      {
        "name": "Occhullo",
        "location": {
          "lat": -13.518454357548245,
          "lng": -71.96143112260559
        }
      },
      {
        "name": "Mariscal Gamarra",
        "location": {
          "lat": -13.518770187733601,
          "lng": -71.96274102216898
        }
      },
      {
        "name": "Mercado de Rosaspata",
        "location": {
          "lat": -13.517674138134064,
          "lng": -71.96658011413476
        }
      },
      {
        "name": "Puputi(bajda)",
        "location": {
          "lat": -13.519081905309317,
          "lng": -71.96742456764517
        }
      },
      {
        "name": "Garcilaso",
        "location": {
          "lat": -13.521317532907313,
          "lng": -71.96651320899271
        }
      },
      {
        "name": "Amauta",
        "location": {
          "lat": -13.522359303212086,
          "lng": -71.9631560083819
        }
      },
      {
        "name": "Los Incas",
        "location": {
          "lat": -13.523301112757773,
          "lng": -71.96092875893923
        }
      },
      {
        "name": "Seguro",
        "location": {
          "lat": -13.525309014486778,
          "lng": -71.96128137808539
        }
      },
      {
        "name": "Calca",
        "location": {
          "lat": -13.528747302211366,
          "lng": -71.96053046148208
        }
      },
      {
        "name": "Mercado de Ttito (bajada)",
        "location": {
          "lat": -13.531710358207544,
          "lng": -71.96045546859268
        }
      },
      {
        "name": "28 de Julio(bajada)",
        "location": {
          "lat": -13.532277815711215,
          "lng": -71.96046798131891
        }
      },
      {
        "name": "Tercer Paradero de Ttito(SUBIDA)",
        "location": {
          "lat": -13.533806988490868,
          "lng": -71.96070332259895
        }
      },
      {
        "name": "Segundo Puente(SUBIDA)",
        "location": {
          "lat": -13.533634166909561,
          "lng": -71.9624832748661
        }
      },
      {
        "name": "Segundo Paradero de Ttito(SUBIDA)",
        "location": {
          "lat": -13.53352163950123,
          "lng": -71.96354747220428
        }
      },
      {
        "name": "Primer Paradero de Ttito(SUBIDA)",
        "location": {
          "lat": -13.53332871063205,
          "lng": -71.96536051207376
        }
      },
      {
        "name": "Terminal Terrestre",
        "location": {
          "lat": -13.533196085149452,
          "lng": -71.96664137148437
        }
      },
      {
        "name": "Avenida 28 de Julio",
        "location": {
          "lat": -13.531762038013934,
          "lng": -71.96709827757974
        }
      },
      {
        "name": "Óvalo Pachacuteq (subida)",
        "location": {
          "lat": -13.531530225065435,
          "lng": -71.9680499166691
        }
      },
      {
        "name": "Terminal Terrestre Wanchaq",
        "location": {
          "lat": -13.534104337364811,
          "lng": -71.96722893582243
        }
      },
      {
        "name": "Picador",
        "location": {
          "lat": -13.535936763269115,
          "lng": -71.9638992101467
        }
      },
      {
        "name": "Molino",
        "location": {
          "lat": -13.536589744575853,
          "lng": -71.96218529635719
        }
      },
      {
        "name": "Manco Cápac",
        "location": {
          "lat": -13.537017279325362,
          "lng": -71.9610054083792
        }
      },
      {
        "name": "Viva El Perú",
        "location": {
          "lat": -13.53761465856539,
          "lng": -71.95930900141755
        }
      },
      {
        "name": "Esquina",
        "location": {
          "lat": -13.538974331824138,
          "lng": -71.95877598587126
        }
      },
      {
        "name": "Picaflor",
        "location": {
          "lat": -13.539306121910062,
          "lng": -71.95901996064376
        }
      },
      {
        "name": "Colegio Viva El Perú",
        "location": {
          "lat": -13.539988838866535,
          "lng": -71.96014943441261
        }
      },
      {
        "name": "Medio",
        "location": {
          "lat": -13.541367504325315,
          "lng": -71.960649301538
        }
      },
      {
        "name": "Esquina",
        "location": {
          "lat": -13.542140609934886,
          "lng": -71.96033593939642
        }
      },
      {
        "name": "Estacionamiento Señor del Huerto S.A.",
        "location": {
          "lat": -13.54295335118753,
          "lng": -71.960658349274
        }
      }
    ]
  },
  {
    "name": "Nuevo Mirador",
    "code": "RTI-07",
    "route": [
      {
        "name": "Final Cachona",
        "location": {
          "lat": -13.551785474885271,
          "lng": -71.98718976391413
        }
      },
      {
        "name": "Octavo",
        "location": {
          "lat": -13.550251964908615,
          "lng": -71.98674854439071
        }
      },
      {
        "name": "Séptimo",
        "location": {
          "lat": -13.551349856095488,
          "lng": -71.98853855376979
        }
      },
      {
        "name": "Sexto",
        "location": {
          "lat": -13.551672600051377,
          "lng": -71.9908849134707
        }
      },
      {
        "name": "Quinto",
        "location": {
          "lat": -13.550975746688659,
          "lng": -71.98964037896708
        }
      },
      {
        "name": "Cuarto",
        "location": {
          "lat": -13.549922888183296,
          "lng": -71.98836679700942
        }
      },
      {
        "name": "Reservorio",
        "location": {
          "lat": -13.54890015708374,
          "lng": -71.9873316422914
        }
      },
      {
        "name": "Segundo",
        "location": {
          "lat": -13.547945951332924,
          "lng": -71.98567240416149
        }
      },
      {
        "name": "Primero",
        "location": {
          "lat": -13.546257671498859,
          "lng": -71.98436910586364
        }
      },
      {
        "name": "Subida - Juan Espinoza Medrano",
        "location": {
          "lat": -13.545067529760678,
          "lng": -71.98328388792487
        }
      },
      {
        "name": "Esquina - Carretera Comunidad Chocco",
        "location": {
          "lat": -13.545190345485686,
          "lng": -71.98209270132311
        }
      },
      {
        "name": "Entrada",
        "location": {
          "lat": -13.544375492269161,
          "lng": -71.9820611818743
        }
      },
      {
        "name": "Grifo",
        "location": {
          "lat": -13.542871501708774,
          "lng": -71.98193243971029
        }
      },
      {
        "name": "Puente",
        "location": {
          "lat": -13.542067876637358,
          "lng": -71.98222782018743
        }
      },
      {
        "name": "Salcatay",
        "location": {
          "lat": -13.54109034726613,
          "lng": -71.98154655647235
        }
      },
      {
        "name": "Esquina",
        "location": {
          "lat": -13.540142338789058,
          "lng": -71.9812739508574
        }
      },
      {
        "name": "Gradas",
        "location": {
          "lat": -13.53901931397426,
          "lng": -71.9808734600432
        }
      },
      {
        "name": "Puerto",
        "location": {
          "lat": -13.537511676703668,
          "lng": -71.98011929579592
        }
      },
      {
        "name": "Mercado De Huancaro",
        "location": {
          "lat": -13.536445162171388,
          "lng": -71.98007796323591
        }
      },
      {
        "name": "Colegio San Jose Obreo",
        "location": {
          "lat": -13.535192860916103,
          "lng": -71.98055410631179
        }
      },
      {
        "name": "Perú",
        "location": {
          "lat": -13.532433597269412,
          "lng": -71.98009661252236
        }
      },
      {
        "name": "Zarzuela",
        "location": {
          "lat": -13.529812417151286,
          "lng": -71.97942082732858
        }
      },
      {
        "name": "Ccoripata",
        "location": {
          "lat": -13.527171116080098,
          "lng": -71.97872044336115
        }
      },
      {
        "name": "Belempampa",
        "location": {
          "lat": -13.525807151983182,
          "lng": -71.97825307743246
        }
      },
      {
        "name": "Colegio Rosario",
        "location": {
          "lat": -13.52293,
          "lng": -71.977355
        }
      },
      {
        "name": "Humberto Luna",
        "location": {
          "lat": -13.524234,
          "lng": -71.975764
        }
      },
      {
        "name": "Pardo Paseo de los Héroes",
        "location": {
          "lat": -13.523624998650662,
          "lng": -71.97509481269873
        }
      },
      {
        "name": "Estación Hotel",
        "location": {
          "lat": -13.525453670428083,
          "lng": -71.97248150922731
        }
      },
      {
        "name": "Estación Avenida Pardo",
        "location": {
          "lat": -13.525752265081335,
          "lng": -71.97216209719083
        }
      },
      {
        "name": "Confraternidad",
        "location": {
          "lat": -13.52817326771042,
          "lng": -71.9707900124316
        }
      },
      {
        "name": "Cruce Andina",
        "location": {
          "lat": -13.529277345250904,
          "lng": -71.97017187189006
        }
      },
      {
        "name": "Parque Urpicha",
        "location": {
          "lat": -13.530603098638641,
          "lng": -71.9694211495448
        }
      },
      {
        "name": "Óvalo Pachacuteq(bajada)",
        "location": {
          "lat": -13.53128336687838,
          "lng": -71.96891870142359
        }
      },
      {
        "name": "Entrada a Terminal",
        "location": {
          "lat": -13.532288425140855,
          "lng": -71.96740873704128
        }
      },
      {
        "name": "Hospedaje",
        "location": {
          "lat": -13.533842579670118,
          "lng": -71.9667243117885
        }
      },
      {
        "name": "Terminal Terrestre",
        "location": {
          "lat": -13.533680929405438,
          "lng": -71.9663944489733
        }
      },
      {
        "name": "Primer Paradero de Ttito",
        "location": {
          "lat": -13.53374004181742,
          "lng": -71.96539452308014
        }
      },
      {
        "name": "Segundo Paradero de Ttito",
        "location": {
          "lat": -13.534491707400813,
          "lng": -71.96362329298081
        }
      },
      {
        "name": "Segundo Puente",
        "location": {
          "lat": -13.534582520316174,
          "lng": -71.96256691749932
        }
      },
      {
        "name": "Tercer Paradero de Ttito",
        "location": {
          "lat": -13.535042801538024,
          "lng": -71.96088044846118
        }
      },
      {
        "name": "Tercer Paradero (DE VIA EXPRESA)",
        "location": {
          "lat": -13.532639517845867,
          "lng": -71.96011752846148
        }
      },
      {
        "name": "Cuarto Puente",
        "location": {
          "lat": -13.532943099535022,
          "lng": -71.95841818889508
        }
      },
      {
        "name": "Quinto Puente",
        "location": {
          "lat": -13.533172298832634,
          "lng": -71.95582927932803
        }
      },
      {
        "name": "Vía Expresa",
        "location": {
          "lat": -13.533070156736088,
          "lng": -71.95460082320251
        }
      },
      {
        "name": "República de Brasil",
        "location": {
          "lat": -13.53341982825712,
          "lng": -71.95177198123478
        }
      },
      {
        "name": "Túpac Amaru",
        "location": {
          "lat": -13.531476427867085,
          "lng": -71.95135475324076
        }
      },
      {
        "name": "Colombia",
        "location": {
          "lat": -13.5317882549519,
          "lng": -71.94926647122612
        }
      },
      {
        "name": "Chile",
        "location": {
          "lat": -13.532605390357851,
          "lng": -71.94738993168414
        }
      },
      {
        "name": "Américas",
        "location": {
          "lat": -13.532852787185696,
          "lng": -71.94544835494564
        }
      },
      {
        "name": "República de Argentina",
        "location": {
          "lat": -13.532461306692843,
          "lng": -71.94240574554846
        }
      },
      {
        "name": "República del Perú",
        "location": {
          "lat": -13.531729653019063,
          "lng": -71.94013261849506
        }
      },
      {
        "name": "Túpac Amaru (repetido)",
        "location": {
          "lat": -13.529734016352602,
          "lng": -71.94058036901271
        }
      },
      {
        "name": "Cusco",
        "location": {
          "lat": -13.528338593227064,
          "lng": -71.94127370155779
        }
      },
      {
        "name": "Primer Paradero de San Sebastián (Avenida Cusco-parte de abajo)",
        "location": {
          "lat": -13.528488641214706,
          "lng": -71.94070563020334
        }
      },
      {
        "name": "Callejón (parte de abajo)",
        "location": {
          "lat": -13.529159892060305,
          "lng": -71.93929127636737
        }
      },
      {
        "name": "Plaza de San Sebastián (parte de abajo)",
        "location": {
          "lat": -13.530447872644222,
          "lng": -71.93726058637303
        }
      },
      {
        "name": "Segundo Paradero de San Sebastián (Avenida Cusco-parte de abajo)",
        "location": {
          "lat": -13.530610184367442,
          "lng": -71.93633847170362
        }
      },
      {
        "name": "Tercer Paradero de San Sebastián (Avenida Cusco- parte de abajo)",
        "location": {
          "lat": -13.530972753759752,
          "lng": -71.93462966167772
        }
      },
      {
        "name": "Cuarto Paradero de San Sebastián (Avenida Cusco-parte de abajo)",
        "location": {
          "lat": -13.531391653560284,
          "lng": -71.93300468771574
        }
      },
      {
        "name": "Sexto Paradero de San Sebastián (Avenida Cusco-parte de abajo)",
        "location": {
          "lat": -13.532280329019795,
          "lng": -71.92829739531699
        }
      },
      {
        "name": "7mo Paradero SS",
        "location": {
          "lat": -13.53229298699121,
          "lng": -71.92571276515717
        }
      },
      {
        "name": "Camionero",
        "location": {
          "lat": -13.53302870660512,
          "lng": -71.92269590581027
        }
      },
      {
        "name": "Santa Rosa",
        "location": {
          "lat": -13.532857178742448,
          "lng": -71.92090292990267
        }
      },
      {
        "name": "Mercadillo",
        "location": {
          "lat": -13.532514677489024,
          "lng": -71.9193561097896
        }
      },
      {
        "name": "San Miguel",
        "location": {
          "lat": -13.531765746120982,
          "lng": -71.91619485062255
        }
      },
      {
        "name": "Sol de Oro",
        "location": {
          "lat": -13.5319909959673,
          "lng": -71.91430716139831
        }
      },
      {
        "name": "Enaco",
        "location": {
          "lat": -13.533597036001527,
          "lng": -71.91189349444828
        }
      },
      {
        "name": "Cachimayo",
        "location": {
          "lat": -13.535385233636358,
          "lng": -71.90926541568524
        }
      },
      {
        "name": "Puente Túpac Amaru",
        "location": {
          "lat": -13.53635067456182,
          "lng": -71.90770696115035
        }
      },
      {
        "name": "Grifo Móvil",
        "location": {
          "lat": -13.536960382610417,
          "lng": -71.90680389749781
        }
      },
      {
        "name": "Universidad Andina",
        "location": {
          "lat": -13.5386855027454,
          "lng": -71.90415142310371
        }
      },
      {
        "name": "Teléfono",
        "location": {
          "lat": -13.539535889574514,
          "lng": -71.90297443193317
        }
      },
      {
        "name": "Tingo",
        "location": {
          "lat": -13.540785265181189,
          "lng": -71.90125454267654
        }
      },
      {
        "name": "Aprovite",
        "location": {
          "lat": -13.541820755214406,
          "lng": -71.8997920052805
        }
      },
      {
        "name": "Grifo San Martín",
        "location": {
          "lat": -13.542797266136303,
          "lng": -71.89842551451899
        }
      },
      {
        "name": "Kantu Versalles",
        "location": {
          "lat": -13.545045216005759,
          "lng": -71.89763563076451
        }
      },
      {
        "name": "Ciro Alegría",
        "location": {
          "lat": -13.54616008644702,
          "lng": -71.89631997712793
        }
      },
      {
        "name": "Petroperú",
        "location": {
          "lat": -13.54696106511015,
          "lng": -71.89507718539151
        }
      },
      {
        "name": "Penal Esquina",
        "location": {
          "lat": -13.545279034256293,
          "lng": -71.89448336458004
        }
      },
      {
        "name": "San Juan",
        "location": {
          "lat": -13.54589620690304,
          "lng": -71.89211010406221
        }
      },
      {
        "name": "Control",
        "location": {
          "lat": -13.546039012482021,
          "lng": -71.8899699749744
        }
      },
      {
        "name": "Esquina Mercado",
        "location": {
          "lat": -13.544062872748604,
          "lng": -71.8887845212686
        }
      },
      {
        "name": "Puerta 7-Mercado Vinocanchón",
        "location": {
          "lat": -13.544341779606633,
          "lng": -71.88776365990275
        }
      },
      {
        "name": "Agustín Gamarra",
        "location": {
          "lat": -13.544970468868327,
          "lng": -71.88611849342348
        }
      },
      {
        "name": "Velasco Astete",
        "location": {
          "lat": -13.545204827439903,
          "lng": -71.88546358147197
        }
      },
      {
        "name": "Santa Rosa",
        "location": {
          "lat": -13.545583772371655,
          "lng": -71.88438042244918
        }
      },
      {
        "name": "Sorama",
        "location": {
          "lat": -13.545953823335143,
          "lng": -71.8833175976252
        }
      },
      {
        "name": "Almagro",
        "location": {
          "lat": -13.546796199401241,
          "lng": -71.88318704129202
        }
      },
      {
        "name": "Romeritos",
        "location": {
          "lat": -13.547212815378048,
          "lng": -71.88100210837139
        }
      },
      {
        "name": "Licorería",
        "location": {
          "lat": -13.547575959621582,
          "lng": -71.88012359430661
        }
      },
      {
        "name": "Grifo",
        "location": {
          "lat": -13.54800708071954,
          "lng": -71.87733318906574
        }
      },
      {
        "name": "Estadio",
        "location": {
          "lat": -13.548558312225943,
          "lng": -71.87395877853434
        }
      },
      {
        "name": "Kayra",
        "location": {
          "lat": -13.550656830178644,
          "lng": -71.87404348243453
        }
      },
      {
        "name": "Puente Huacoto",
        "location": {
          "lat": -13.551596450945556,
          "lng": -71.8704017701724
        }
      },
      {
        "name": "Collana",
        "location": {
          "lat": -13.552375895071172,
          "lng": -71.86725888450583
        }
      },
      {
        "name": "U Andina",
        "location": {
          "lat": -13.552876952211236,
          "lng": -71.86518039149347
        }
      },
      {
        "name": "Kinta",
        "location": {
          "lat": -13.553102071822366,
          "lng": -71.86390522302383
        }
      },
      {
        "name": "Entrada",
        "location": {
          "lat": -13.55345026468987,
          "lng": -71.86151412400505
        }
      },
      {
        "name": "Peaje",
        "location": {
          "lat": -13.555573252042572,
          "lng": -71.85623548464778
        }
      },
      {
        "name": "Llamagas",
        "location": {
          "lat": -13.558653516505617,
          "lng": -71.85134634349772
        }
      },
      {
        "name": "Angostura",
        "location": {
          "lat": -13.560948634123559,
          "lng": -71.8461374634611
        }
      },
      {
        "name": "Saywas",
        "location": {
          "lat": -13.563303942021593,
          "lng": -71.84099314100294
        }
      },
      {
        "name": "Bosque",
        "location": {
          "lat": -13.56565658453261,
          "lng": -71.83592800427805
        }
      },
      {
        "name": "Cristal",
        "location": {
          "lat": -13.56693779228231,
          "lng": -71.83310973906204
        }
      },
      {
        "name": "Cruce",
        "location": {
          "lat": -13.567661718831275,
          "lng": -71.8315446137458
        }
      },
      {
        "name": "Primero",
        "location": {
          "lat": -13.569699533378394,
          "lng": -71.8288705089004
        }
      },
      {
        "name": "Segundo",
        "location": {
          "lat": -13.571038481673751,
          "lng": -71.82736968618754
        }
      },
      {
        "name": "Tercero",
        "location": {
          "lat": -13.57194446121075,
          "lng": -71.82636163493953
        }
      },
      {
        "name": "Estadio",
        "location": {
          "lat": -13.572409268201104,
          "lng": -71.82577912934576
        }
      },
      {
        "name": "Estadio de Saylla (Final del Mirador)",
        "location": {
          "lat": -13.571598843236334,
          "lng": -71.82324746013566
        }
      }
    ]
  },
  {
    "name": "Cristo Blanco",
    "code": "RTI-08",
    "route": [
      {
        "name": "Luis Vallejo Santoni",
        "location": {
          "lat": -13.544466,
          "lng": -71.986992
        }
      },
      {
        "name": "Losa 1",
        "location": {
          "lat": -13.543481,
          "lng": -71.985597
        }
      },
      {
        "name": "Estrella",
        "location": {
          "lat": -13.542744987648884,
          "lng": -71.98445787311506
        }
      },
      {
        "name": "Apurímac",
        "location": {
          "lat": -13.541839,
          "lng": -71.983519
        }
      },
      {
        "name": "Domingo Guevara",
        "location": {
          "lat": -13.540637,
          "lng": -71.982743
        }
      },
      {
        "name": "Gradas",
        "location": {
          "lat": -13.539404,
          "lng": -71.984237
        }
      },
      {
        "name": "Teléfono",
        "location": {
          "lat": -13.538033,
          "lng": -71.983123
        }
      },
      {
        "name": "Ramiro Prialé",
        "location": {
          "lat": -13.534326,
          "lng": -71.981915
        }
      },
      {
        "name": "Parque",
        "location": {
          "lat": -13.533369173504774,
          "lng": -71.9826266661064
        }
      },
      {
        "name": "Miguel Grau",
        "location": {
          "lat": -13.532696,
          "lng": -71.980444
        }
      },
      {
        "name": "Zarzuela",
        "location": {
          "lat": -13.529854677780266,
          "lng": -71.9794700751635
        }
      },
      {
        "name": "Ccoripata",
        "location": {
          "lat": -13.527107826929596,
          "lng": -71.97870396234217
        }
      },
      {
        "name": "Plaza Belén",
        "location": {
          "lat": -13.526315960278817,
          "lng": -71.9811835862189
        }
      },
      {
        "name": "Colegio Fe y Alegría",
        "location": {
          "lat": -13.52618841901422,
          "lng": -71.9818037072165
        }
      },
      {
        "name": "Plaza Santiago",
        "location": {
          "lat": -13.525101239958365,
          "lng": -71.98322687706188
        }
      },
      {
        "name": "Puente Santiago",
        "location": {
          "lat": -13.522805310477628,
          "lng": -71.98247067811731
        }
      },
      {
        "name": "Tres Cruces de Oro, 240a",
        "location": {
          "lat": -13.522679463888107,
          "lng": -71.98154029735002
        }
      },
      {
        "name": "Belén",
        "location": {
          "lat": -13.523533258289838,
          "lng": -71.97951966325776
        }
      },
      {
        "name": "Puente Grau paradero",
        "location": {
          "lat": -13.524283155956805,
          "lng": -71.97816702250941
        }
      },
      {
        "name": "Colegio Rosario",
        "location": {
          "lat": -13.52293,
          "lng": -71.977355
        }
      },
      {
        "name": "Humberto Luna",
        "location": {
          "lat": -13.524234,
          "lng": -71.975764
        }
      },
      {
        "name": "Correo",
        "location": {
          "lat": -13.523201518186882,
          "lng": -71.97446036746861
        }
      },
      {
        "name": "La Salle",
        "location": {
          "lat": -13.522419520626036,
          "lng": -71.97323835958935
        }
      },
      {
        "name": "Mercado Wanchaq",
        "location": {
          "lat": -13.522428198917847,
          "lng": -71.97233149918758
        }
      },
      {
        "name": "Manco Inca",
        "location": {
          "lat": -13.52261238771284,
          "lng": -71.97102501605578
        }
      },
      {
        "name": "Tacna",
        "location": {
          "lat": -13.522978899525233,
          "lng": -71.9689325896925
        }
      },
      {
        "name": "Institución Educativa",
        "location": {
          "lat": -13.521980567943329,
          "lng": -71.96846333931995
        }
      },
      {
        "name": "Grifo",
        "location": {
          "lat": -13.520753160755225,
          "lng": -71.96853990286903
        }
      },
      {
        "name": "Plaza Zarumilla(Zarumilla)",
        "location": {
          "lat": -13.519903189594572,
          "lng": -71.96860739241963
        }
      },
      {
        "name": "Retiro",
        "location": {
          "lat": -13.517956787117527,
          "lng": -71.96843072048752
        }
      },
      {
        "name": "Recolecta",
        "location": {
          "lat": -13.517488200536622,
          "lng": -71.9678071611385
        }
      },
      {
        "name": "Mercado de Rosaspata",
        "location": {
          "lat": -13.518001331967485,
          "lng": -71.96582841508118
        }
      },
      {
        "name": "Mariscal Gamarra",
        "location": {
          "lat": -13.518521468447279,
          "lng": -71.96381199843266
        }
      },
      {
        "name": "Occhullo",
        "location": {
          "lat": -13.518596725034149,
          "lng": -71.96139051083324
        }
      },
      {
        "name": "Andes Perú",
        "location": {
          "lat": -13.517618345430112,
          "lng": -71.96032370311407
        }
      },
      {
        "name": "Hotel Mirador",
        "location": {
          "lat": -13.517214181771518,
          "lng": -71.95933799006903
        }
      },
      {
        "name": "Lorohuachana",
        "location": {
          "lat": -13.516830810882585,
          "lng": -71.95715476731603
        }
      },
      {
        "name": "Mirador Kanka",
        "location": {
          "lat": -13.51642947683582,
          "lng": -71.9589793269939
        }
      },
      {
        "name": "Media Luna",
        "location": {
          "lat": -13.516334593039232,
          "lng": -71.96072774748176
        }
      },
      {
        "name": "Lucrepata",
        "location": {
          "lat": -13.516228979975757,
          "lng": -71.96180811350301
        }
      },
      {
        "name": "Palacio del Inka",
        "location": {
          "lat": -13.51389752184942,
          "lng": -71.96338687394095
        }
      },
      {
        "name": "Cruz de Tete Qaqa",
        "location": {
          "lat": -13.514589060902418,
          "lng": -71.96546410416776
        }
      },
      {
        "name": "Balconcillo",
        "location": {
          "lat": -13.51398535188399,
          "lng": -71.96678345939449
        }
      },
      {
        "name": "Mosocllacta",
        "location": {
          "lat": -13.513372778768042,
          "lng": -71.96728725610456
        }
      },
      {
        "name": "Camino Qhapaq Ñan",
        "location": {
          "lat": -13.511317476593048,
          "lng": -71.97019858098331
        }
      },
      {
        "name": "Entrada",
        "location": {
          "lat": -13.511995218328764,
          "lng": -71.97139025143193
        }
      },
      {
        "name": "Mesa",
        "location": {
          "lat": -13.512014682018654,
          "lng": -71.9722586355611
        }
      },
      {
        "name": "Chozas",
        "location": {
          "lat": -13.51176379038947,
          "lng": -71.97332210802779
        }
      },
      {
        "name": "Señal",
        "location": {
          "lat": -13.510603799729546,
          "lng": -71.9747690913289
        }
      },
      {
        "name": "Cristo Blanco",
        "location": {
          "lat": -13.510329229196422,
          "lng": -71.97619151560795
        }
      },
      {
        "name": "Entrada a Sacsayhuamán",
        "location": {
          "lat": -13.50800725388863,
          "lng": -71.97524375316853
        }
      },
      {
        "name": "Desvío",
        "location": {
          "lat": -13.508459386967814,
          "lng": -71.97313292229168
        }
      },
      {
        "name": "Q´enqo",
        "location": {
          "lat": -13.508175766885442,
          "lng": -71.97063034988764
        }
      },
      {
        "name": "Estacionamiento Cristo Blanco S.A.",
        "location": {
          "lat": -13.507294370603589,
          "lng": -71.96994558667907
        }
      }
    ]
  },
  {
    "name": "Saylla Tipon",
    "code": "RTI-09",
    "route": [
      {
        "name": "Don Bosco",
        "location": {
          "lat": -13.511254541701298,
          "lng": -71.98472852483759
        }
      },
      {
        "name": "Conquista",
        "location": {
          "lat": -13.513015734530926,
          "lng": -71.98309924246405
        }
      },
      {
        "name": "Amargura",
        "location": {
          "lat": -13.514300355945942,
          "lng": -71.9818098698085
        }
      },
      {
        "name": "Saphi",
        "location": {
          "lat": -13.515202372916118,
          "lng": -71.98102461008017
        }
      },
      {
        "name": "Granada",
        "location": {
          "lat": -13.51716515459148,
          "lng": -71.98177063948464
        }
      },
      {
        "name": "Plaza San Francisco",
        "location": {
          "lat": -13.518787882429022,
          "lng": -71.9815715516448
        }
      },
      {
        "name": "Mesón de la Estrella",
        "location": {
          "lat": -13.520287966035264,
          "lng": -71.9799410512226
        }
      },
      {
        "name": "Matará",
        "location": {
          "lat": -13.521004051386107,
          "lng": -71.97928396204631
        }
      },
      {
        "name": "Ayacucho",
        "location": {
          "lat": -13.52050866888769,
          "lng": -71.97850476126645
        }
      },
      {
        "name": "El Sol",
        "location": {
          "lat": -13.51948365181845,
          "lng": -71.97761927589094
        }
      },
      {
        "name": "Pampa del Castillo",
        "location": {
          "lat": -13.519816620671133,
          "lng": -71.97628435637807
        }
      },
      {
        "name": "Limacpampa",
        "location": {
          "lat": -13.51985299601859,
          "lng": -71.97340776265365
        }
      },
      {
        "name": "Huáscar",
        "location": {
          "lat": -13.520187295257758,
          "lng": -71.9714780010104
        }
      },
      {
        "name": "Clorinda Matto- Tacna",
        "location": {
          "lat": -13.52062921878832,
          "lng": -71.9687721829894
        }
      },
      {
        "type": "REFERENCE",
        "value": "culturaRoutes"
      },
      {
        "name": "Camionero",
        "location": {
          "lat": -13.53302870660512,
          "lng": -71.92269590581027
        }
      },
      {
        "name": "Santa Rosa",
        "location": {
          "lat": -13.532857178742448,
          "lng": -71.92090292990267
        }
      },
      {
        "name": "Mercadillo",
        "location": {
          "lat": -13.532514677489024,
          "lng": -71.9193561097896
        }
      },
      {
        "name": "San Miguel",
        "location": {
          "lat": -13.531765746120982,
          "lng": -71.91619485062255
        }
      },
      {
        "name": "Sol de Oro",
        "location": {
          "lat": -13.5319909959673,
          "lng": -71.91430716139831
        }
      },
      {
        "name": "Enaco",
        "location": {
          "lat": -13.533597036001527,
          "lng": -71.91189349444828
        }
      },
      {
        "name": "Cachimayo",
        "location": {
          "lat": -13.535385233636358,
          "lng": -71.90926541568524
        }
      },
      {
        "name": "Puente Túpac Amaru",
        "location": {
          "lat": -13.53635067456182,
          "lng": -71.90770696115035
        }
      },
      {
        "name": "Grifo Móvil",
        "location": {
          "lat": -13.536960382610417,
          "lng": -71.90680389749781
        }
      },
      {
        "name": "Universidad Andina",
        "location": {
          "lat": -13.5386855027454,
          "lng": -71.90415142310371
        }
      },
      {
        "name": "Teléfono",
        "location": {
          "lat": -13.539535889574514,
          "lng": -71.90297443193317
        }
      },
      {
        "name": "Tingo",
        "location": {
          "lat": -13.540785265181189,
          "lng": -71.90125454267654
        }
      },
      {
        "name": "Aprovite",
        "location": {
          "lat": -13.541820755214406,
          "lng": -71.8997920052805
        }
      },
      {
        "name": "San Martín",
        "location": {
          "lat": -13.542954619876825,
          "lng": -71.89817198804033
        }
      },
      {
        "name": "Miraflores",
        "location": {
          "lat": -13.54461627363419,
          "lng": -71.89580443596408
        }
      },
      {
        "name": "Penal",
        "location": {
          "lat": -13.545133850139878,
          "lng": -71.89473223926336
        }
      },
      {
        "name": "San Juan",
        "location": {
          "lat": -13.54589620690304,
          "lng": -71.89211010406221
        }
      },
      {
        "name": "Control",
        "location": {
          "lat": -13.546039012482021,
          "lng": -71.8899699749744
        }
      },
      {
        "name": "Agricultura",
        "location": {
          "lat": -13.544986752218735,
          "lng": -71.88859403897948
        }
      },
      {
        "name": "La Cultura",
        "location": {
          "lat": -13.546572637605793,
          "lng": -71.88793929080937
        }
      },
      {
        "name": "Farmacia",
        "location": {
          "lat": -13.547155675651899,
          "lng": -71.88660276071795
        }
      },
      {
        "name": "Paradero Medio",
        "location": {
          "lat": -13.547585495425889,
          "lng": -71.88506649302744
        }
      },
      {
        "name": "Tercer Paradero",
        "location": {
          "lat": -13.548247770254532,
          "lng": -71.8826804687899
        }
      },
      {
        "name": "Romeritos",
        "location": {
          "lat": -13.548673897120981,
          "lng": -71.88098718387026
        }
      },
      {
        "name": "Posta",
        "location": {
          "lat": -13.54891542279444,
          "lng": -71.88006365817147
        }
      },
      {
        "name": "Tapia",
        "location": {
          "lat": -13.549606087243411,
          "lng": -71.87764209936809
        }
      },
      {
        "name": "Forestal",
        "location": {
          "lat": -13.550072337773916,
          "lng": -71.87605823526194
        }
      },
      {
        "name": "Kayra",
        "location": {
          "lat": -13.550656830178644,
          "lng": -71.87404348243453
        }
      },
      {
        "name": "Puente Huacoto",
        "location": {
          "lat": -13.551596450945556,
          "lng": -71.8704017701724
        }
      },
      {
        "name": "Collana",
        "location": {
          "lat": -13.552375895071172,
          "lng": -71.86725888450583
        }
      },
      {
        "name": "U Andina Collana",
        "location": {
          "lat": -13.552876952211236,
          "lng": -71.86518039149347
        }
      },
      {
        "name": "Kinta",
        "location": {
          "lat": -13.553102071822366,
          "lng": -71.86390522302383
        }
      },